{
	"type" : "FeatureCollection",
	"properties" : {
		"name" : "Linha Verde (Metrô 02, SP)",
		"description" : "Linha Verde (São Paulo, SP)"
	},
	"features" : [{
			"geometry" : {
				"coordinates" : [-46.6909398216832, -23.546462762953],
				"type" : "Point"
			},
			"properties" : {
				"description" : "Estação Vila Madalena",
				"name" : "Vila Madalena"
			},
			"type" : "Feature"
		}, {
			"geometry" : {
				"coordinates" : [-46.6776895523071, -23.5508283055303],
				"type" : "Point"
			},
			"properties" : {
				"description" : "Estação Santuário Nossa Senhora de Fátima - Sumaré",
				"name" : "Santuário Nossa Senhora de Fátima - Sumaré"
			},
			"type" : "Feature"
		}, {
			"geometry" : {
				"coordinates" : [-46.6709612773721, -23.5540137722426],
				"type" : "Point"
			},
			"properties" : {
				"description" : "Estação Clínicas",
				"name" : "Clínicas"
			},
			"type" : "Feature"
		}, {
			"geometry" : {
				"coordinates" : [-46.6601248325637, -23.5580287429994],
				"type" : "Point"
			},
			"properties" : {
				"description" : "Estação Consolação",
				"name" : "Consolação"
			},
			"type" : "Feature"
		}, {
			"geometry" : {
				"coordinates" : [-46.6539144515991, -23.5634364119108],
				"type" : "Point"
			},
			"properties" : {
				"description" : "Estação Trianon-MASP",
				"name" : "Trianon-MASP"
			},
			"type" : "Feature"
		}, {
			"geometry" : {
				"coordinates" : [-46.6489180330347, -23.5675992783871],
				"type" : "Point"
			},
			"properties" : {
				"description" : "Estação Brigadeiro",
				"name" : "Brigadeiro"
			},
			"type" : "Feature"
		}, {
			"geometry" : {
				"coordinates" : [-46.6410001232954, -23.5763242616697],
				"type" : "Point"
			},
			"properties" : {
				"description" : "Estação Paraíso",
				"name" : "Paraíso"
			},
			"type" : "Feature"
		}, {
			"geometry" : {
				"coordinates" : [-46.6377997398376, -23.5822873057732],
				"type" : "Point"
			},
			"properties" : {
				"description" : "Estação Ana Rosa",
				"name" : "Ana Rosa"
			},
			"type" : "Feature"
		}, {
			"geometry" : {
				"coordinates" : [-46.6306862210615, -23.5927550958933],
				"type" : "Point"
			},
			"properties" : {
				"description" : "Estação Chácara Klabin",
				"name" : "Chácara Klabin"
			},
			"type" : "Feature"
		}, {
			"geometry" : {
				"coordinates" : [-46.6205972551025, -23.5959693042994],
				"type" : "Point"
			},
			"properties" : {
				"description" : "Estação Santos - Imigrantes",
				"name" : "Santos - Imigrantes"
			},
			"type" : "Feature"
		}, {
			"geometry" : {
				"coordinates" : [-46.6125207403934, -23.6019323395559],
				"type" : "Point"
			},
			"properties" : {
				"description" : "Estação Alto do Ipiranga",
				"name" : "Alto do Ipiranga"
			},
			"type" : "Feature"
		}, {
			"geometry" : {
				"coordinates" : [-46.6025447845459, -23.6012043125856],
				"type" : "Point"
			},
			"properties" : {
				"description" : "Estação Sacomã",
				"name" : "Sacomã"
			},
			"type" : "Feature"
		}, {
			"geometry" : {
				"coordinates" : [-46.5894556045532, -23.5924245649441],
				"type" : "Point"
			},
			"properties" : {
				"description" : "Estação Tamanduateí",
				"name" : "Tamanduateí"
			},
			"type" : "Feature"
		}, {
			"geometry" : {
				"coordinates" : [-46.5819454193115, -23.5843423517589],
				"type" : "Point"
			},
			"properties" : {
				"description" : "Estação Vila Prudente",
				"name" : "Vila Prudente"
			},
			"type" : "Feature"
		}, {
			"geometry" : {
				"coordinates" : [[-46.6909398216832, -23.546462762953], [-46.6776895523071, -23.5508283055303], [-46.6709612773721, -23.5540137722426], [-46.6601248325637, -23.5580287429994], [-46.6539144515991, -23.5634364119108], [-46.6489180330347, -23.5675992783871], [-46.6410001232954, -23.5763242616697], [-46.6377997398376, -23.5822873057732], [-46.6306862210615, -23.5927550958933], [-46.6205972551025, -23.5959693042994], [-46.6125207403934, -23.6019323395559], [-46.6025447845459, -23.6012043125856], [-46.5894556045532, -23.5924245649441], [-46.5819454193115, -23.5843423517589]],
				"type" : "LineString"
			},
			"properties" : {
				"description" : "Linha 02 Verde (São Paulo, SP)",
				"name" : "Linha Verde (Metrô)"
			},
			"type" : "Feature"
		}
	]	
}
