<?xml version="1.0" encoding="UTF-8"?>
<kml xmlns="http://www.opengis.net/kml/2.2">
	<Document>
		<Placemark>
			<name>Vila Madalena</name>
			<description>Estação Vila Madalena</description>
			<Point>
				<coordinates>-46.6909398216832,-23.546462762953</coordinates>
			</Point>
		</Placemark>
		<Placemark>
			<name>Santuário Nossa Senhora de Fátima - Sumaré</name>
			<description>Estação Santuário Nossa Senhora de Fátima - Sumaré</description>
			<Point>
				<coordinates>-46.6776895523071,-23.5508283055303</coordinates>
			</Point>
		</Placemark>
		<Placemark>
			<name>Clínicas</name>
			<description>Estação Clínicas</description>
			<Point>
				<coordinates>-46.6709612773721,-23.5540137722426</coordinates>
			</Point>
		</Placemark>
		<Placemark>
			<name>Consolação</name>
			<description>Estação Consolação</description>

			<Point>
				<coordinates>-46.6601248325637,-23.5580287429994</coordinates>
			</Point>
		</Placemark>
		<Placemark>
			<name>Trianon-MASP</name>
			<description>Estação Trianon-MASP</description>
			<Point>
				<coordinates>-46.6539144515991,-23.5634364119108</coordinates>
			</Point>
		</Placemark>
		<Placemark>
			<name>Brigadeiro</name>
			<description>Estação Brigadeiro</description>
			<Point>
				<coordinates>-46.6489180330347,-23.5675992783871</coordinates>
			</Point>
		</Placemark>
		<Placemark>
			<name>Paraíso</name>
			<description>Estação Paraíso</description>
			<Point>
				<coordinates>-46.6410001232954,-23.5763242616697</coordinates>
			</Point>
		</Placemark>
		<Placemark>
			<name>Ana Rosa</name>
			<description>Estação Ana Rosa</description>
			<Point>
				<coordinates>-46.6377997398376,-23.5822873057732</coordinates>
			</Point>
		</Placemark>
		<Placemark>
			<name>Chácara Klabin</name>
			<description>Estação Chácara Klabin</description>
			<Point>
				<coordinates>-46.6306862210615,-23.5927550958933</coordinates>
			</Point>
		</Placemark>
		<Placemark>
			<name>Santos - Imigrantes</name>
			<description>Estação Santos - Imigrantes</description>
			<Point>
				<coordinates>-46.6205972551025,-23.5959693042994</coordinates>
			</Point>
		</Placemark>
		<Placemark>
			<name>Alto do Ipiranga</name>
			<description>Estação Alto do Ipiranga</description>
			<Point>
				<coordinates>-46.6125207403934,-23.6019323395559</coordinates>
			</Point>
		</Placemark>
		<Placemark>
			<name>Sacomã</name>
			<description>Estação Sacomã</description>
			<Point>
				<coordinates>-46.6025447845459,-23.6012043125856</coordinates>
			</Point>
		</Placemark>
		<Placemark>
			<name>Tamanduateí</name>
			<description>Estação Tamanduateí</description>
			<Point>
				<coordinates>-46.5894556045532,-23.5924245649441</coordinates>
			</Point>
		</Placemark>
		<Placemark>
			<name>Vila Prudente</name>
			<description>Estação Vila Prudente</description>
			<Point>
				<coordinates>-46.5819454193115,-23.5843423517589</coordinates>
			</Point>
		</Placemark>
		<Placemark>
			<name>Linha Verde (Metrô)</name>
			<description>Linha 02 Verde (São Paulo, SP)</description>
			<LineString>
				<coordinates>-46.6909398216832,-23.546462762953 -46.6776895523071,-23.5508283055303 -46.6709612773721,-23.5540137722426 -46.6601248325637,-23.5580287429994 -46.6539144515991,-23.5634364119108 -46.6489180330347,-23.5675992783871 -46.6410001232954,-23.5763242616697 -46.6377997398376,-23.5822873057732 -46.6306862210615,-23.5927550958933 -46.6205972551025,-23.5959693042994 -46.6125207403934,-23.6019323395559 -46.6025447845459,-23.6012043125856 -46.5894556045532,-23.5924245649441 -46.5819454193115,-23.5843423517589</coordinates>
			</LineString>
		</Placemark>
	</Document>
</kml>